{"results": [{"id": "35995D42E7BC11B9D6BCAB8733060CEE", "name": "go asia Supermarkt - Mannheim", "address": "L15 10-11, 68161 Mannheim, Germany", "phone_number": "+4962117879699", "website": "http://goasia.net/", "location": {"lat": 49.481153, "lng": 8.470738}, "types": ["food", "grocery_store", "store", "supermarket"], "distance": 171}, {"id": "E5E9AFC62F3193E19DDEE4DCE1B3F1E0", "name": "Asia Market Kim Ha", "address": "Kaiserring 10-16, 68161 Mannheim, Germany", "phone_number": "+496211563317", "location": {"lat": 49.480771, "lng": 8.471656}, "types": ["food", "grocery_store", "store", "supermarket"], "distance": 249}, {"id": "2C722DBDA453017A21FAD1DBD2D40A06", "name": "Lidl", "address": "Schwetzinger Str. 6, 68165 Mannheim, Germany", "phone_number": "+498004353361", "website": "https://www.lidl.de/", "location": {"lat": 49.481372, "lng": 8.472902}, "types": ["food", "grocery_store", "store", "supermarket"], "distance": 310}, {"id": "B8E171FEDAB7BC7EA201ACEB5100ABC5", "name": "Alnatura Super Natur Markt", "address": "N7 12, 68161 Mannheim, Germany", "phone_number": "+49621152690", "website": "https://www.alnatura.de/de-de/m%C3%A4rkte/alnatura-filialen-detailseiten/m/mannheim-alnatura-super-natur-markt-ma001?utm_campaign=gmb&utm_medium=link&utm_source=google-maps", "location": {"lat": 49.48338, "lng": 8.472978}, "types": ["food", "grocery_store", "store", "supermarket"], "distance": 348}, {"id": "D738EEDB72BD9547271A30A9BB2F2CF4", "name": "basic", "address": "B 1, 3-5 (Kurpfalzstra\u00dfe Haltestelle Schloss (Stra\u00dfenbahn 1, 4, 5, 68159 Mannheim, Germany", "phone_number": "+4962133651430", "website": "https://basicbio.de/", "location": {"lat": 49.485693, "lng": 8.46404}, "types": ["food", "grocery_store", "store", "supermarket"], "distance": 538}, {"id": "F509205EDFAA696BA8632C70F51F1BF5", "name": "REWE", "address": "N1 1, 68161 Mannheim, Germany", "phone_number": "+4962112508635", "website": "https://www.rewe.de/marktseite/mannheim/862012/rewe-markt-n-1?ecid=seo_localseo_862012_g_nn_nn_nn_nn_nn", "location": {"lat": 49.486534, "lng": 8.465853}, "types": ["food", "grocery_store", "store", "supermarket"], "distance": 552}, {"id": "39187CB05B0601B27C868F7F1BCD15D1", "name": "PENNY", "address": "Meerfeldstra\u00dfe 3, 68163 Mannheim, Germany", "phone_number": "+4922120199959", "website": "https://www.penny.de/", "location": {"lat": 49.476684, "lng": 8.46823}, "types": ["food", "grocery_store", "store", "supermarket"], "distance": 586}, {"id": "BFD3E75D331987D6CEF589B2BA6AB939", "name": "REWE", "address": "Q6 6, 68161 Mannheim, Germany", "phone_number": "+4962112268613", "website": "https://www.rewe.de/marktseite/mannheim/830843/rewe-markt-q6?ecid=seo_localseo_830843_g_nn_nn_nn_nn_nn", "location": {"lat": 49.48688, "lng": 8.472241}, "types": ["food", "grocery_store", "store", "supermarket"], "distance": 607}, {"id": "3D689C4CF647E84DFC1834A28DE4AC9B", "name": "Zanbil Supermarket", "address": "Q2 16, 68161 Mannheim, Germany", "phone_number": "+4962143708270", "website": "https://instagram.com/zanbil.supermarkt?utm_medium=copy_link", "location": {"lat": 49.48778, "lng": 8.469519}, "types": ["food", "grocery_store", "store", "supermarket"], "distance": 653}, {"id": "DC02482EBF674E43ED4E732319D132A3", "name": "go asia Supermarkt - P1", "address": "P1 Untergeschoss GALERIA (Kaufhof, 68161 Mannheim, Germany", "phone_number": "+4962179905666", "website": "http://goasia.net/", "location": {"lat": 49.487789, "lng": 8.466811}, "types": ["food", "grocery_store", "store", "supermarket"], "distance": 666}, {"id": "7F83FAEC7A363D50DA57B5F376F10D95", "name": "PENNY", "address": "S6 29, 68161 Mannheim, Germany", "website": "https://www.penny.de/", "location": {"lat": 49.487411, "lng": 8.474746}, "types": ["food", "grocery_store", "store", "supermarket"], "distance": 750}, {"id": "5BEA2F8EA73EFAE205C78DED85C3AFFD", "name": "REWE", "address": "S6 29/32, 68161 Mannheim, Germany", "phone_number": "+496211568732", "website": "https://www.rewe.de/marktseite/mannheim/840099/rewe-markt-s-6-29-32?ecid=seo_localseo_840099_g_nn_nn_nn_nn_nn", "location": {"lat": 49.487411, "lng": 8.474746}, "types": ["food", "grocery_store", "store", "supermarket"], "distance": 750}, {"id": "78D7ED2156B6090CEC2685756932D0A0", "name": "ALDI S\u00dcD", "address": "E 2, 16, 68159 Mannheim, Germany", "phone_number": "+498008002534", "website": "https://www.aldi-sued.de/?pk_campaign=wvz&pk_source=Google&pk_keyword=D2191", "location": {"lat": 49.488542, "lng": 8.4648}, "types": ["food", "grocery_store", "store", "supermarket"], "distance": 788}, {"id": "360E522FEC6642D2EFC80E04318E1ABF", "name": "Netto Marken-Discount", "address": "D3 3, 68159 Mannheim, Germany", "website": "https://www.netto-online.de/", "location": {"lat": 49.488413, "lng": 8.463619}, "types": ["food", "grocery_store", "store", "supermarket"], "distance": 810}, {"id": "013314321B07D6EC2A84CD889379CFD8", "name": "CAP Markt Mannheim", "address": "Meerfeldstra\u00dfe 35-37, 68163 Mannheim, Germany", "phone_number": "+4962142944494", "website": "http://www.cap-markt.de/", "location": {"lat": 49.47441, "lng": 8.469043}, "types": ["food", "grocery_store", "store", "supermarket"], "distance": 838}, {"id": "4F0DBB79810252F1D1A03F84C9A7CDA7", "name": "Lidl", "address": "R1 4/6, 68161 Mannheim, Germany", "phone_number": "+498004353361", "website": "https://www.lidl.de/", "location": {"lat": 49.489531, "lng": 8.468048}, "types": ["food", "grocery_store", "store", "supermarket"], "distance": 847}, {"id": "E3012B719C4595AE7A9953EC575DBF83", "name": "Kiosk Kaiser", "address": "S2 3, 68161 Mannheim, Germany", "phone_number": "+4917670262732", "location": {"lat": 49.489762, "lng": 8.469277}, "types": ["food", "grocery_store", "store", "supermarket"], "distance": 872}, {"id": "0BDD77EF5EE0CE622D967992810AAECE", "name": "Flink Lebensmittel Lieferservice - Mannheim, Innenstadt", "address": "S1 4, 68161 Mannheim, Germany", "website": "https://www.goflink.com/de-DE/?utm_source=google&utm_medium=mybusiness&utm_campaign=website", "location": {"lat": 49.490168, "lng": 8.468699}, "types": ["food", "grocery_store", "store", "supermarket"], "distance": 916}, {"id": "A6B9D3B6DC43A979967B43E86A7A0BD7", "name": "ABONE", "address": "H1 12-13, 68159 Mannheim, Germany", "phone_number": "+496211227475", "website": "http://www.abone-supermarkt.eu/", "location": {"lat": 49.490504, "lng": 8.467699}, "types": ["food", "grocery_store", "store", "supermarket"], "distance": 957}, {"id": "6B70D94AFD6856C08EE935A230056A47", "name": "EDEKA City-Markt Mail & Orth", "address": "Seckenheimer Str. 68/68a, 68165 Mannheim, Germany", "phone_number": "+496214327080", "website": "https://www.edeka.de/eh/s%C3%BCdwest/edeka-city-supermarkt-mail-seckenheimer-stra%C3%9Fe-68-68a/index.jsp", "location": {"lat": 49.479006, "lng": 8.481619}, "types": ["food", "grocery_store", "store", "supermarket"], "distance": 989}]}